{
  "north": {
    "name": "North Route",
    "color": "#3b82f6",
    "stops": [
      {
        "name": "College Gate",
        "lat": 15.8625695,
        "lng": 74.4665375
      },
      {
        "name": "Railway Station",
        "lat": 15.865127,
        "lng": 74.471941
      },
      {
        "name": "City Bus Stand",
        "lat": 15.8733848,
        "lng": 74.4722843
      }
    ]
  },
  "south": {
    "name": "South Route",
    "color": "#10b981",
    "stops": [
      {
        "name": "College Gate",
        "lat": 15.8625695,
        "lng": 74.4665375
      },
      {
        "name": "Market Circle",
        "lat": 15.8649016,
        "lng": 74.4759965
      },
      {
        "name": "Hospital Road",
        "lat": 15.8698354,
        "lng": 74.4769835
      }
    ]
  },
  "east": {
    "name": "East Route",
    "color": "#f59e0b",
    "stops": [
      {
        "name": "College Gate",
        "lat": 15.8625695,
        "lng": 74.4665375
      },
      {
        "name": "Tech Park",
        "lat": 15.8645902,
        "lng": 74.4841933
      },
      {
        "name": "IT Hub",
        "lat": 15.8720628,
        "lng": 74.4807172
      }
    ]
  }
}